goal_id:
  uuid:
  - 6
  - 22
  - 200
  - 159
  - 193
  - 214
  - 48
  - 239
  - 30
  - 40
  - 139
  - 203
  - 83
  - 222
  - 9
  - 252
feedback:
  header:
    stamp:
      sec: 1699766732
      nanosec: 902506221
    frame_id: ''
  joint_names:
  - joint_1
  - joint_2
  - joint_3
  - joint_4
  - joint_5
  - joint_6
  desired:
    positions:
    - 0.025927824986577544
    - 0.07259766286774857
    - -0.20051305493568258
    - -0.09623289287398927
    - 0.2742693955114866
    - 0.09268958573919814
    velocities:
    - 0.0007088045409652362
    - -0.0006650325604033247
    - 0.0005703279877525357
    - -0.005582616307238643
    - 0.00014861318483214508
    - 0.0056597626805787275
    accelerations:
    - 0.024106102088385137
    - -0.02261743804765283
    - 0.019396581006547006
    - -0.18986209997932463
    - 0.00505426305593147
    - 0.19248581109293084
    effort: []
    time_from_start:
      sec: 0
      nanosec: 0
  actual:
    positions:
    - 0.025921953649150273
    - 0.07260317162275307
    - -0.2005177792113704
    - -0.09618664962613686
    - 0.27426816448360253
    - 0.09264270345425865
    velocities:
    - 0.0
    - 0.0
    - 0.0
    - 0.0
    - 0.0
    - 0.0
    accelerations: []
    effort: []
    time_from_start:
      sec: 0
      nanosec: 0
  error:
    positions:
    - 5.871337427271195e-06
    - -5.508755004490773e-06
    - 4.724275687817414e-06
    - -4.624324785240663e-05
    - 1.231027884074365e-06
    - 4.688228493948676e-05
    velocities:
    - 0.0
    - 0.0
    - 0.0
    - 0.0
    - 0.0
    - 0.0
    accelerations: []
    effort: []
    time_from_start:
      sec: 0
      nanosec: 0
  multi_dof_joint_names: []
  multi_dof_desired:
    transforms: []
    velocities: []
    accelerations: []
    time_from_start:
      sec: 0
      nanosec: 0
  multi_dof_actual:
    transforms: []
    velocities: []
    accelerations: []
    time_from_start:
      sec: 0
      nanosec: 0
  multi_dof_error:
    transforms: []
    velocities: []
    accelerations: []
    time_from_start:
      sec: 0
      nanosec: 0
---
goal_id:
  uuid:
  - 6
  - 22
  - 200
  - 159
  - 193
  - 214
  - 48
  - 239
  - 30
  - 40
  - 139
  - 203
  - 83
  - 222
  - 9
  - 252
feedback:
  header:
    stamp:
      sec: 1699766732
      nanosec: 952490921
    frame_id: ''
  joint_names:
  - joint_1
  - joint_2
  - joint_3
  - joint_4
  - joint_5
  - joint_6
  desired:
    positions:
    - 0.02598838932720939
    - 0.07254083865713522
    - -0.20046432282897922
    - -0.0967099037509059
    - 0.2742820938775784
    - 0.0931731884463917
    velocities:
    - 0.0016148213195867158
    - -0.0015150985845755818
    - 0.0012993395789034634
    - -0.012718496159343184
    - 0.00033857534112139256
    - 0.012894253510211184
    accelerations:
    - 0.014353254411014565
    - -0.01346687412304215
    - 0.011549111543345106
    - -0.11304768452431202
    - 0.003009409121580056
    - 0.11460989449849035
    effort: []
    time_from_start:
      sec: 0
      nanosec: 0
  actual:
    positions:
    - 0.025972973423005745
    - 0.07255530255747861
    - -0.20047672698430796
    - -0.09658848652905686
    - 0.2742788616654685
    - 0.09305009335563469
    velocities:
    - 0.0
    - 0.0
    - 0.0
    - 0.0
    - 0.0
    - 0.0
    accelerations: []
    effort: []
    time_from_start:
      sec: 0
      nanosec: 0
  error:
    positions:
    - 1.5415904203643777e-05
    - -1.4463900343389402e-05
    - 1.2404155328743505e-05
    - -0.00012141722184905168
    - 3.232212109904875e-06
    - 0.00012309509075701663
    velocities:
    - 0.0
    - 0.0
    - 0.0
    - 0.0
    - 0.0
    - 0.0
    accelerations: []
    effort: []
    time_from_start:
      sec: 0
      nanosec: 0
  multi_dof_joint_names: []
  multi_dof_desired:
    transforms: []
    velocities: []
    accelerations: []
    time_from_start:
      sec: 0
      nanosec: 0
  multi_dof_actual:
    transforms: []
    velocities: []
    accelerations: []
    time_from_start:
      sec: 0
      nanosec: 0
  multi_dof_error:
    transforms: []
    velocities: []
    accelerations: []
    time_from_start:
      sec: 0
      nanosec: 0
---
goal_id:
  uuid:
  - 6
  - 22
  - 200
  - 159
  - 193
  - 214
  - 48
  - 239
  - 30
  - 40
  - 139
  - 203
  - 83
  - 222
  - 9
  - 252
feedback:
  header:
    stamp:
      sec: 1699766733
      nanosec: 2505708
    frame_id: ''
  joint_names:
  - joint_1
  - joint_2
  - joint_3
  - joint_4
  - joint_5
  - joint_6
  desired:
    positions:
    - 0.026090394140716632
    - 0.07244513311579101
    - -0.200382246323164
    - -0.09751330398664287
    - 0.2743034809586803
    - 0.09398769089856544
    velocities:
    - 0.002481292513085878
    - -0.0023280611476352658
    - 0.001996531461385039
    - -0.01954291098040021
    - 0.0005202460785058089
    - 0.0198129751624368
    accelerations:
    - 0.017724505585381595
    - -0.01662993484111129
    - 0.014261733694042279
    - -0.1395999999999615
    - 0.0037162504926741
    - 0.14152913736590902
    effort: []
    time_from_start:
      sec: 0
      nanosec: 0
  actual:
    positions:
    - 0.026066470602034836
    - 0.07246757926457247
    - -0.20040149600750953
    - -0.09732487977453211
    - 0.2742984649732141
    - 0.09379666284556475
    velocities:
    - 0.0
    - 0.0
    - 0.0
    - 0.0
    - 0.0
    - 0.0
    accelerations: []
    effort: []
    time_from_start:
      sec: 0
      nanosec: 0
  error:
    positions:
    - 2.3923538681795697e-05
    - -2.244614878145479e-05
    - 1.9249684345523654e-05
    - -0.000188424212110766
    - 5.015985466205741e-06
    - 0.00019102805300069692
    velocities:
    - 0.0
    - 0.0
    - 0.0
    - 0.0
    - 0.0
    - 0.0
    accelerations: []
    effort: []
    time_from_start:
      sec: 0
      nanosec: 0
  multi_dof_joint_names: []
  multi_dof_desired:
    transforms: []
    velocities: []
    accelerations: []
    time_from_start:
      sec: 0
      nanosec: 0
  multi_dof_actual:
    transforms: []
    velocities: []
    accelerations: []
    time_from_start:
      sec: 0
      nanosec: 0
  multi_dof_error:
    transforms: []
    velocities: []
    accelerations: []
    time_from_start:
      sec: 0
      nanosec: 0
---
goal_id:
  uuid:
  - 6
  - 22
  - 200
  - 159
  - 193
  - 214
  - 48
  - 239
  - 30
  - 40
  - 139
  - 203
  - 83
  - 222
  - 9
  - 252
feedback:
  header:
    stamp:
      sec: 1699766733
      nanosec: 52490783
    frame_id: ''
  joint_names:
  - joint_1
  - joint_2
  - joint_3
  - joint_4
  - joint_5
  - joint_6
  desired:
    positions:
    - 0.026236564140123722
    - 0.07230798979440715
    - -0.20026463302243958
    - -0.09866455369676481
    - 0.27433412803821067
    - 0.09515484976938482
    velocities:
    - 0.0033672532541091944
    - -0.0031593096879136214
    - 0.0027094052897133052
    - -0.026520827450401043
    - 0.0007060031381006116
    - 0.026887319708356734
    accelerations:
    - 0.01772450558538503
    - -0.01662993484113622
    - 0.014261733694131732
    - -0.13960000000010064
    - 0.003716250492636563
    - 0.1415291373659247
    effort: []
    time_from_start:
      sec: 0
      nanosec: 0
  actual:
    positions:
    - 0.026203779887230858
    - 0.07233874946704212
    - -0.20029101233563762
    - -0.09840634160267865
    - 0.2743272542500884
    - 0.09489306943318515
    velocities:
    - 0.0
    - 0.0
    - 0.0
    - 0.0
    - 0.0
    - 0.0
    accelerations: []
    effort: []
    time_from_start:
      sec: 0
      nanosec: 0
  error:
    positions:
    - 3.278425289286388e-05
    - -3.075967263496682e-05
    - 2.6379313198043874e-05
    - -0.0002582120940861632
    - 6.873788122252478e-06
    - 0.00026178033619966845
    velocities:
    - 0.0
    - 0.0
    - 0.0
    - 0.0
    - 0.0
    - 0.0
    accelerations: []
    effort: []
    time_from_start:
      sec: 0
      nanosec: 0
  multi_dof_joint_names: []
  multi_dof_desired:
    transforms: []
    velocities: []
    accelerations: []
    time_from_start:
      sec: 0
      nanosec: 0
  multi_dof_actual:
    transforms: []
    velocities: []
    accelerations: []
    time_from_start:
      sec: 0
      nanosec: 0
  multi_dof_error:
    transforms: []
    velocities: []
    accelerations: []
    time_from_start:
      sec: 0
      nanosec: 0
---
goal_id:
  uuid:
  - 6
  - 22
  - 200
  - 159
  - 193
  - 214
  - 48
  - 239
  - 30
  - 40
  - 139
  - 203
  - 83
  - 222
  - 9
  - 252
feedback:
  header:
    stamp:
      sec: 1699766733
      nanosec: 102603785
    frame_id: ''
  joint_names:
  - joint_1
  - joint_2
  - joint_3
  - joint_4
  - joint_5
  - joint_6
  desired:
    positions:
    - 0.026427563199558243
    - 0.07212878581617427
    - -0.20011094875134086
    - -0.1001688816210961
    - 0.2743741743089124
    - 0.09667996605481592
    velocities:
    - 0.004255481437958408
    - -0.003992685645866948
    - 0.0034241035788483976
    - -0.033516602529600266
    - 0.0008922356064744177
    - 0.03397976965224084
    accelerations:
    - 0.017724505585372943
    - -0.01662993484113104
    - 0.01426173369403721
    - -0.13959999999996575
    - 0.00371625049266791
    - 0.1415291373659664
    effort: []
    time_from_start:
      sec: 0
      nanosec: 0
  actual:
    positions:
    - 0.0263857019539614
    - 0.07216806193495175
    - -0.2001446317183454
    - -0.09983917821373346
    - 0.27436539737159116
    - 0.09634570646433842
    velocities:
    - 0.0
    - 0.0
    - 0.0
    - 0.0
    - 0.0
    - 0.0
    accelerations: []
    effort: []
    time_from_start:
      sec: 0
      nanosec: 0
  error:
    positions:
    - 4.186124559684215e-05
    - -3.927611877747872e-05
    - 3.36829670045391e-05
    - -0.00032970340736264425
    - 8.776937321264278e-06
    - 0.00033425959047750364
    velocities:
    - 0.0
    - 0.0
    - 0.0
    - 0.0
    - 0.0
    - 0.0
    accelerations: []
    effort: []
    time_from_start:
      sec: 0
      nanosec: 0
  multi_dof_joint_names: []
  multi_dof_desired:
    transforms: []
    velocities: []
    accelerations: []
    time_from_start:
      sec: 0
      nanosec: 0
  multi_dof_actual:
    transforms: []
    velocities: []
    accelerations: []
    time_from_start:
      sec: 0
      nanosec: 0
  multi_dof_error:
    transforms: []
    velocities: []
    accelerations: []
    time_from_start:
      sec: 0
      nanosec: 0
---
goal_id:
  uuid:
  - 6
  - 22
  - 200
  - 159
  - 193
  - 214
  - 48
  - 239
  - 30
  - 40
  - 139
  - 203
  - 83
  - 222
  - 9
  - 252
feedback:
  header:
    stamp:
      sec: 1699766733
      nanosec: 152509689
    frame_id: ''
  joint_names:
  - joint_1
  - joint_2
  - joint_3
  - joint_4
  - joint_5
  - joint_6
  desired:
    positions:
    - 0.026662009167869507
    - 0.07190881797797426
    - -0.1999223056351989
    - -0.10201540179727765
    - 0.27442332997878705
    - 0.09855200335899832
    velocities:
    - 0.005140038912149653
    - -0.004822617577575804
    - 0.004135848291449846
    - -0.040483466727999406
    - 0.0010776984468021617
    - 0.04104290919483284
    accelerations:
    - 0.017724505585385505
    - -0.016629934841171964
    - 0.014261733693685698
    - -0.13960000000003825
    - 0.003716250492732365
    - 0.1415291373661384
    effort: []
    time_from_start:
      sec: 0
      nanosec: 0
  actual:
    positions:
    - 0.026611410931880006
    - 0.0719562915373087
    - -0.1999630186787078
    - -0.10161688496925625
    - 0.2744127211796575
    - 0.09814797941275405
    velocities:
    - 0.0
    - 0.0
    - 0.0
    - 0.0
    - 0.0
    - 0.0
    accelerations: []
    effort: []
    time_from_start:
      sec: 0
      nanosec: 0
  error:
    positions:
    - 5.059823598950117e-05
    - -4.747355933444608e-05
    - 4.071304350891647e-05
    - -0.000398516828021403
    - 1.0608799129563362e-05
    - 0.00040402394624426685
    velocities:
    - 0.0
    - 0.0
    - 0.0
    - 0.0
    - 0.0
    - 0.0
    accelerations: []
    effort: []
    time_from_start:
      sec: 0
      nanosec: 0
  multi_dof_joint_names: []
  multi_dof_desired:
    transforms: []
    velocities: []
    accelerations: []
    time_from_start:
      sec: 0
      nanosec: 0
  multi_dof_actual:
    transforms: []
    velocities: []
    accelerations: []
    time_from_start:
      sec: 0
      nanosec: 0
  multi_dof_error:
    transforms: []
    velocities: []
    accelerations: []
    time_from_start:
      sec: 0
      nanosec: 0
---
goal_id:
  uuid:
  - 6
  - 22
  - 200
  - 159
  - 193
  - 214
  - 48
  - 239
  - 30
  - 40
  - 139
  - 203
  - 83
  - 222
  - 9
  - 252
feedback:
  header:
    stamp:
      sec: 1699766733
      nanosec: 202509833
    frame_id: ''
  joint_names:
  - joint_1
  - joint_2
  - joint_3
  - joint_4
  - joint_5
  - joint_6
  desired:
    positions:
    - 0.026941167613240998
    - 0.07164689886635159
    - -0.19969768535526147
    - -0.10421408196841832
    - 0.27448186039618866
    - 0.10078106716963743
    velocities:
    - 0.006026266743748206
    - -0.00565411671434076
    - 0.004848937029851789
    - -0.04746348683039947
    - 0.0012635115065764582
    - 0.04811938644332486
    accelerations:
    - 0.01772450558538039
    - -0.016629934841101555
    - 0.014261733694067963
    - -0.1395999999999596
    - 0.003716250492640354
    - 0.1415291373659756
    effort: []
    time_from_start:
      sec: 0
      nanosec: 0
  actual:
    positions:
    - 0.02688179010071211
    - 0.07170260954102323
    - -0.19974546250013156
    - -0.10374641866976655
    - 0.2744694108692257
    - 0.10030694121522545
    velocities:
    - 0.0
    - 0.0
    - 0.0
    - 0.0
    - 0.0
    - 0.0
    accelerations: []
    effort: []
    time_from_start:
      sec: 0
      nanosec: 0
  error:
    positions:
    - 5.937751252888673e-05
    - -5.571067467163848e-05
    - 4.7777144870086996e-05
    - -0.00046766329865176315
    - 1.2449526962943214e-05
    - 0.0004741259544119858
    velocities:
    - 0.0
    - 0.0
    - 0.0
    - 0.0
    - 0.0
    - 0.0
    accelerations: []
    effort: []
    time_from_start:
      sec: 0
      nanosec: 0
  multi_dof_joint_names: []
  multi_dof_desired:
    transforms: []
    velocities: []
    accelerations: []
    time_from_start:
      sec: 0
      nanosec: 0
  multi_dof_actual:
    transforms: []
    velocities: []
    accelerations: []
    time_from_start:
      sec: 0
      nanosec: 0
  multi_dof_error:
    transforms: []
    velocities: []
    accelerations: []
    time_from_start:
      sec: 0
      nanosec: 0
---
goal_id:
  uuid:
  - 6
  - 22
  - 200
  - 159
  - 193
  - 214
  - 48
  - 239
  - 30
  - 40
  - 139
  - 203
  - 83
  - 222
  - 9
  - 252
feedback:
  header:
    stamp:
      sec: 1699766733
      nanosec: 252567586
    frame_id: ''
  joint_names:
  - joint_1
  - joint_2
  - joint_3
  - joint_4
  - joint_5
  - joint_6
  desired:
    positions:
    - 0.027265035829121185
    - 0.07134303102071543
    - -0.19943709008931138
    - -0.10676490081744472
    - 0.2745497649936416
    - 0.10336713587507874
    velocities:
    - 0.006913515666388534
    - -0.006486573885020458
    - 0.0055628473724616346
    - -0.05445154914919927
    - 0.0014495386558199233
    - 0.05520401704389709
    accelerations:
    - 0.01772450558538881
    - -0.016629934841008734
    - 0.014261733694080635
    - -0.13960000000005243
    - 0.0037162504924805237
    - 0.14152913736611428
    effort: []
    time_from_start:
      sec: 0
      nanosec: 0
  actual:
    positions:
    - 0.027196271880825747
    - 0.07140754847504224
    - -0.19949241987629007
    - -0.10622330900063504
    - 0.27453534743736613
    - 0.1028180597816865
    velocities:
    - 0.0
    - 0.0
    - 0.0
    - 0.0
    - 0.0
    - 0.0
    accelerations: []
    effort: []
    time_from_start:
      sec: 0
      nanosec: 0
  error:
    positions:
    - 6.876394829543817e-05
    - -6.451745432681233e-05
    - 5.532978697869728e-05
    - -0.0005415918168096834
    - 1.4417556275458931e-05
    - 0.0005490760933922478
    velocities:
    - 0.0
    - 0.0
    - 0.0
    - 0.0
    - 0.0
    - 0.0
    accelerations: []
    effort: []
    time_from_start:
      sec: 0
      nanosec: 0
  multi_dof_joint_names: []
  multi_dof_desired:
    transforms: []
    velocities: []
    accelerations: []
    time_from_start:
      sec: 0
      nanosec: 0
  multi_dof_actual:
    transforms: []
    velocities: []
    accelerations: []
    time_from_start:
      sec: 0
      nanosec: 0
  multi_dof_error:
    transforms: []
    velocities: []
    accelerations: []
    time_from_start:
      sec: 0
      nanosec: 0
---
goal_id:
  uuid:
  - 6
  - 22
  - 200
  - 159
  - 193
  - 214
  - 48
  - 239
  - 30
  - 40
  - 139
  - 203
  - 83
  - 222
  - 9
  - 252
feedback:
  header:
    stamp:
      sec: 1699766733
      nanosec: 302506822
    frame_id: ''
  joint_names:
  - joint_1
  - joint_2
  - joint_3
  - joint_4
  - joint_5
  - joint_6
  desired:
    positions:
    - 0.027632393333685296
    - 0.0709983595524553
    - -0.1991415018780987
    - -0.10965824570597225
    - 0.2746267878759305
    - 0.10630046399954549
    velocities:
    - 0.007798663933800508
    - -0.007317060125719286
    - 0.006275067457180051
    - -0.06142306649479963
    - 0.001635125366217255
    - 0.06227187403568967
    accelerations:
    - 0.017724505585387677
    - -0.01662993484112782
    - 0.014261733694120269
    - -0.13959999999998576
    - 0.003716250492776395
    - 0.141529137365943
    effort: []
    time_from_start:
      sec: 0
      nanosec: 0
  actual:
    positions:
    - 0.027555192630910125
    - 0.07107079275239168
    - -0.19920362016166213
    - -0.10905020515694278
    - 0.2746106014075214
    - 0.10568402091653918
    velocities:
    - 0.0
    - 0.0
    - 0.0
    - 0.0
    - 0.0
    - 0.0
    accelerations: []
    effort: []
    time_from_start:
      sec: 0
      nanosec: 0
  error:
    positions:
    - 7.720070277517088e-05
    - -7.243319993638364e-05
    - 6.211828356342264e-05
    - -0.0006080405490294788
    - 1.6186468409062904e-05
    - 0.0006164430830063045
    velocities:
    - 0.0
    - 0.0
    - 0.0
    - 0.0
    - 0.0
    - 0.0
    accelerations: []
    effort: []
    time_from_start:
      sec: 0
      nanosec: 0
  multi_dof_joint_names: []
  multi_dof_desired:
    transforms: []
    velocities: []
    accelerations: []
    time_from_start:
      sec: 0
      nanosec: 0
  multi_dof_actual:
    transforms: []
    velocities: []
    accelerations: []
    time_from_start:
      sec: 0
      nanosec: 0
  multi_dof_error:
    transforms: []
    velocities: []
    accelerations: []
    time_from_start:
      sec: 0
      nanosec: 0
---
goal_id:
  uuid:
  - 6
  - 22
  - 200
  - 159
  - 193
  - 214
  - 48
  - 239
  - 30
  - 40
  - 139
  - 203
  - 83
  - 222
  - 9
  - 252
feedback:
  header:
    stamp:
      sec: 1699766733
      nanosec: 352508171
    frame_id: ''
  joint_names:
  - joint_1
  - joint_2
  - joint_3
  - joint_4
  - joint_5
  - joint_6
  desired:
    positions:
    - 0.02804449387828874
    - 0.07061170813519957
    - -0.19880991191108904
    - -0.11290399130657593
    - 0.27471319191380605
    - 0.10959106267406456
    velocities:
    - 0.008684913123428105
    - -0.008148579301557728
    - 0.006988173380968083
    - -0.06840325481519771
    - 0.0018209429040852863
    - 0.06934852182679216
    accelerations:
    - 0.017724505585394845
    - -0.016629934841123503
    - 0.014261733694281358
    - -0.1395999999998797
    - 0.0037162504931169773
    - 0.14152913736588418
    effort: []
    time_from_start:
      sec: 0
      nanosec: 0
  actual:
    positions:
    - 0.02795855259888322
    - 0.07069234214046372
    - -0.19887906315676449
    - -0.11222710909131671
    - 0.2746951728316716
    - 0.108904826599394
    velocities:
    - 0.0
    - 0.0
    - 0.0
    - 0.0
    - 0.0
    - 0.0
    accelerations: []
    effort: []
    time_from_start:
      sec: 0
      nanosec: 0
  error:
    positions:
    - 8.594127940552213e-05
    - -8.063400526414632e-05
    - 6.915124567544173e-05
    - -0.0006768822152592169
    - 1.801908213444614e-05
    - 0.0006862360746705543
    velocities:
    - 0.0
    - 0.0
    - 0.0
    - 0.0
    - 0.0
    - 0.0
    accelerations: []
    effort: []
    time_from_start:
      sec: 0
      nanosec: 0
  multi_dof_joint_names: []
  multi_dof_desired:
    transforms: []
    velocities: []
    accelerations: []
    time_from_start:
      sec: 0
      nanosec: 0
  multi_dof_actual:
    transforms: []
    velocities: []
    accelerations: []
    time_from_start:
      sec: 0
      nanosec: 0
  multi_dof_error:
    transforms: []
    velocities: []
    accelerations: []
    time_from_start:
      sec: 0
      nanosec: 0
---
goal_id:
  uuid:
  - 6
  - 22
  - 200
  - 159
  - 193
  - 214
  - 48
  - 239
  - 30
  - 40
  - 139
  - 203
  - 83
  - 222
  - 9
  - 252
feedback:
  header:
    stamp:
      sec: 1699766733
      nanosec: 402505664
    frame_id: ''
  joint_names:
  - joint_1
  - joint_2
  - joint_3
  - joint_4
  - joint_5
  - joint_6
  desired:
    positions:
    - 0.028500871171653563
    - 0.07018351426456872
    - -0.19844269538193773
    - -0.1164984650619548
    - 0.2748088793412011
    - 0.11323520859013506
    velocities:
    - 0.0095710939673615
    - -0.008980034352366564
    - 0.007701224311498496
    - -0.07538290483799984
    - 0.002006746112065237
    - 0.07642462388154732
    accelerations:
    - 0.01772450558538917
    - -0.016629934841118882
    - 0.01426173369406938
    - -0.13960000000001407
    - 0.003716250492578374
    - 0.1415291373659948
    effort: []
    time_from_start:
      sec: 0
      nanosec: 0
  actual:
    positions:
    - 0.028406057833223246
    - 0.07027247243790505
    - -0.19851898538488447
    - -0.11575170561181893
    - 0.2747890000777735
    - 0.11247812964459332
    velocities:
    - 0.0
    - 0.0
    - 0.0
    - 0.0
    - 0.0
    - 0.0
    accelerations: []
    effort: []
    time_from_start:
      sec: 0
      nanosec: 0
  error:
    positions:
    - 9.481333843031764e-05
    - -8.895817333633149e-05
    - 7.629000294673283e-05
    - -0.0007467594501358726
    - 1.987926342755797e-05
    - 0.0007570789455417365
    velocities:
    - 0.0
    - 0.0
    - 0.0
    - 0.0
    - 0.0
    - 0.0
    accelerations: []
    effort: []
    time_from_start:
      sec: 0
      nanosec: 0
  multi_dof_joint_names: []
  multi_dof_desired:
    transforms: []
    velocities: []
    accelerations: []
    time_from_start:
      sec: 0
      nanosec: 0
  multi_dof_actual:
    transforms: []
    velocities: []
    accelerations: []
    time_from_start:
      sec: 0
      nanosec: 0
  multi_dof_error:
    transforms: []
    velocities: []
    accelerations: []
    time_from_start:
      sec: 0
      nanosec: 0
---
goal_id:
  uuid:
  - 6
  - 22
  - 200
  - 159
  - 193
  - 214
  - 48
  - 239
  - 30
  - 40
  - 139
  - 203
  - 83
  - 222
  - 9
  - 252
feedback:
  header:
    stamp:
      sec: 1699766733
      nanosec: 452503598
    frame_id: ''
  joint_names:
  - joint_1
  - joint_2
  - joint_3
  - joint_4
  - joint_5
  - joint_6
  desired:
    positions:
    - 0.02900155989721964
    - 0.06971374539898674
    - -0.19803982438318124
    - -0.12044194014239137
    - 0.27491385743010166
    - 0.11723317869298917
    velocities:
    - 0.010457282627802472
    - -0.009811496736976993
    - 0.00841428153146332
    - -0.08236261642440255
    - 0.0021925509589088782
    - 0.08350078835065193
    accelerations:
    - 0.017724505585387185
    - -0.01662993484110601
    - 0.01426173369423172
    - -0.13960000000010678
    - 0.003716250492001609
    - 0.14152913736610856
    effort: []
    time_from_start:
      sec: 0
      nanosec: 0
  actual:
    positions:
    - 0.028897734311732846
    - 0.06981115927116324
    - -0.19812336594340763
    - -0.11962419932225206
    - 0.27489208859252495
    - 0.11640413748336692
    velocities:
    - 0.0
    - 0.0
    - 0.0
    - 0.0
    - 0.0
    - 0.0
    accelerations: []
    effort: []
    time_from_start:
      sec: 0
      nanosec: 0
  error:
    positions:
    - 0.00010382558548679283
    - -9.741387217650221e-05
    - 8.354156022638559e-05
    - -0.0008177408201393149
    - 2.1768837576707778e-05
    - 0.0008290412096222527
    velocities:
    - 0.0
    - 0.0
    - 0.0
    - 0.0
    - 0.0
    - 0.0
    accelerations: []
    effort: []
    time_from_start:
      sec: 0
      nanosec: 0
  multi_dof_joint_names: []
  multi_dof_desired:
    transforms: []
    velocities: []
    accelerations: []
    time_from_start:
      sec: 0
      nanosec: 0
  multi_dof_actual:
    transforms: []
    velocities: []
    accelerations: []
    time_from_start:
      sec: 0
      nanosec: 0
  multi_dof_error:
    transforms: []
    velocities: []
    accelerations: []
    time_from_start:
      sec: 0
      nanosec: 0
---
goal_id:
  uuid:
  - 6
  - 22
  - 200
  - 159
  - 193
  - 214
  - 48
  - 239
  - 30
  - 40
  - 139
  - 203
  - 83
  - 222
  - 9
  - 252
feedback:
  header:
    stamp:
      sec: 1699766733
      nanosec: 502490055
    frame_id: ''
  joint_names:
  - joint_1
  - joint_2
  - joint_3
  - joint_4
  - joint_5
  - joint_6
  desired:
    positions:
    - 0.029546426037089304
    - 0.0692025272801221
    - -0.1976014067501305
    - -0.12473336100935915
    - 0.27502809808132844
    - 0.12158390285757602
    velocities:
    - 0.011343267864091173
    - -0.010642768259825292
    - 0.009127175069503885
    - -0.0893407258215936
    - 0.0023783131543803054
    - 0.09057532848983384
    accelerations:
    - 0.01772450558539171
    - -0.01662993484115755
    - 0.014261733694048597
    - -0.13960000000014236
    - 0.003716250492639268
    - 0.14152913736609976
    effort: []
    time_from_start:
      sec: 0
      nanosec: 0
  actual:
    positions:
    - 0.02943403917033585
    - 0.06930797373458619
    - -0.19769183700538517
    - -0.12384819067142211
    - 0.2750045342224139
    - 0.1206865003192509
    velocities:
    - 0.0
    - 0.0
    - 0.0
    - 0.0
    - 0.0
    - 0.0
    accelerations: []
    effort: []
    time_from_start:
      sec: 0
      nanosec: 0
  error:
    positions:
    - 0.00011238686675345277
    - -0.00010544645446408651
    - 9.043025525468096e-05
    - -0.000885170337937044
    - 2.3563858914554814e-05
    - 0.0008974025383251122
    velocities:
    - 0.0
    - 0.0
    - 0.0
    - 0.0
    - 0.0
    - 0.0
    accelerations: []
    effort: []
    time_from_start:
      sec: 0
      nanosec: 0
  multi_dof_joint_names: []
  multi_dof_desired:
    transforms: []
    velocities: []
    accelerations: []
    time_from_start:
      sec: 0
      nanosec: 0
  multi_dof_actual:
    transforms: []
    velocities: []
    accelerations: []
    time_from_start:
      sec: 0
      nanosec: 0
  multi_dof_error:
    transforms: []
    velocities: []
    accelerations: []
    time_from_start:
      sec: 0
      nanosec: 0
---
goal_id:
  uuid:
  - 6
  - 22
  - 200
  - 159
  - 193
  - 214
  - 48
  - 239
  - 30
  - 40
  - 139
  - 203
  - 83
  - 222
  - 9
  - 252
feedback:
  header:
    stamp:
      sec: 1699766733
      nanosec: 552504058
    frame_id: ''
  joint_names:
  - joint_1
  - joint_2
  - joint_3
  - joint_4
  - joint_5
  - joint_6
  desired:
    positions:
    - 0.03013591631360587
    - 0.06864944077281607
    - -0.19712708303495416
    - -0.1293762460932496
    - 0.2751516949579795
    - 0.1262909481356017
    velocities:
    - 0.012229741339613022
    - -0.01147449787086368
    - 0.009840461461262643
    - -0.0963226806404077
    - 0.0025641777176691597
    - 0.09765376719065227
    accelerations:
    - 0.017724505585295647
    - -0.01662993484117707
    - 0.014261733693962025
    - -0.1395999999995109
    - 0.0037162504927099648
    - 0.14152913736525188
    effort: []
    time_from_start:
      sec: 0
      nanosec: 0
  actual:
    positions:
    - 0.03001459901497285
    - 0.06876326616341157
    - -0.19722469901624365
    - -0.12842073876992346
    - 0.2751262586788887
    - 0.12532223662258435
    velocities:
    - 0.0
    - 0.0
    - 0.0
    - 0.0
    - 0.0
    - 0.0
    accelerations: []
    effort: []
    time_from_start:
      sec: 0
      nanosec: 0
  error:
    positions:
    - 0.00012131729863302035
    - -0.00011382539059549834
    - 9.761598128948945e-05
    - -0.000955507323326138
    - 2.543627909079582e-05
    - 0.0009687115130173618
    velocities:
    - 0.0
    - 0.0
    - 0.0
    - 0.0
    - 0.0
    - 0.0
    accelerations: []
    effort: []
    time_from_start:
      sec: 0
      nanosec: 0
  multi_dof_joint_names: []
  multi_dof_desired:
    transforms: []
    velocities: []
    accelerations: []
    time_from_start:
      sec: 0
      nanosec: 0
  multi_dof_actual:
    transforms: []
    velocities: []
    accelerations: []
    time_from_start:
      sec: 0
      nanosec: 0
  multi_dof_error:
    transforms: []
    velocities: []
    accelerations: []
    time_from_start:
      sec: 0
      nanosec: 0
---
goal_id:
  uuid:
  - 6
  - 22
  - 200
  - 159
  - 193
  - 214
  - 48
  - 239
  - 30
  - 40
  - 139
  - 203
  - 83
  - 222
  - 9
  - 252
feedback:
  header:
    stamp:
      sec: 1699766733
      nanosec: 602490489
    frame_id: ''
  joint_names:
  - joint_1
  - joint_2
  - joint_3
  - joint_4
  - joint_5
  - joint_6
  desired:
    positions:
    - 0.030769381043648996
    - 0.06805509543923169
    - -0.19661737599455498
    - -0.13436547842404784
    - 0.2752845118427036
    - 0.131349126845461
    velocities:
    - 0.013115726115069998
    - -0.01230576896133291
    - 0.010553354628508623
    - -0.10330078640802803
    - 0.002749939816504345
    - 0.10472830365011204
    accelerations:
    - 0.017724505585413497
    - -0.016629934841119895
    - 0.014261733694121061
    - -0.13960000000011802
    - 0.0037162504927161864
    - 0.1415291373660659
    effort: []
    time_from_start:
      sec: 0
      nanosec: 0
  actual:
    positions:
    - 0.03063910458655556
    - 0.06817732671853927
    - -0.19672220081625302
    - -0.13333940786187432
    - 0.27525719712040986
    - 0.13030887697768845
    velocities:
    - 0.0
    - 0.0
    - 0.0
    - 0.0
    - 0.0
    - 0.0
    accelerations: []
    effort: []
    time_from_start:
      sec: 0
      nanosec: 0
  error:
    positions:
    - 0.00013027645709343463
    - -0.0001222312793075775
    - 0.0001048248216980463
    - -0.00102607056217352
    - 2.7314722293725335e-05
    - 0.0010402498677725414
    velocities:
    - 0.0
    - 0.0
    - 0.0
    - 0.0
    - 0.0
    - 0.0
    accelerations: []
    effort: []
    time_from_start:
      sec: 0
      nanosec: 0
  multi_dof_joint_names: []
  multi_dof_desired:
    transforms: []
    velocities: []
    accelerations: []
    time_from_start:
      sec: 0
      nanosec: 0
  multi_dof_actual:
    transforms: []
    velocities: []
    accelerations: []
    time_from_start:
      sec: 0
      nanosec: 0
  multi_dof_error:
    transforms: []
    velocities: []
    accelerations: []
    time_from_start:
      sec: 0
      nanosec: 0
---
goal_id:
  uuid:
  - 6
  - 22
  - 200
  - 159
  - 193
  - 214
  - 48
  - 239
  - 30
  - 40
  - 139
  - 203
  - 83
  - 222
  - 9
  - 252
feedback:
  header:
    stamp:
      sec: 1699766733
      nanosec: 652503174
    frame_id: ''
  joint_names:
  - joint_1
  - joint_2
  - joint_3
  - joint_4
  - joint_5
  - joint_6
  desired:
    positions:
    - 0.031447500597563516
    - 0.06741885292506043
    - -0.19607173818005658
    - -0.1397064166674548
    - 0.2754266913869622
    - 0.13676387170444637
    velocities:
    - 0.014002176229686724
    - -0.013137476654104014
    - 0.011266622223298517
    - -0.11028255723397401
    - 0.002935799481776496
    - 0.11180655581546077
    accelerations:
    - 0.017724505585622902
    - -0.01662993484125646
    - 0.014261733694154684
    - -0.13960000000165468
    - 0.0037162504927513006
    - 0.14152913736757763
    effort: []
    time_from_start:
      sec: 0
      nanosec: 0
  actual:
    positions:
    - 0.03130849977151671
    - 0.0675492698029183
    - -0.19618358292262425
    - -0.138611632092356
    - 0.27539754744916406
    - 0.13565395826235957
    velocities:
    - 0.0
    - 0.0
    - 0.0
    - 0.0
    - 0.0
    - 0.0
    accelerations: []
    effort: []
    time_from_start:
      sec: 0
      nanosec: 0
  error:
    positions:
    - 0.00013900082604680758
    - -0.00013041687785786404
    - 0.00011184474256767385
    - -0.0010947845750988172
    - 2.9143937798126185e-05
    - 0.0011099134420868018
    velocities:
    - 0.0
    - 0.0
    - 0.0
    - 0.0
    - 0.0
    - 0.0
    accelerations: []
    effort: []
    time_from_start:
      sec: 0
      nanosec: 0
  multi_dof_joint_names: []
  multi_dof_desired:
    transforms: []
    velocities: []
    accelerations: []
    time_from_start:
      sec: 0
      nanosec: 0
  multi_dof_actual:
    transforms: []
    velocities: []
    accelerations: []
    time_from_start:
      sec: 0
      nanosec: 0
  multi_dof_error:
    transforms: []
    velocities: []
    accelerations: []
    time_from_start:
      sec: 0
      nanosec: 0
---
goal_id:
  uuid:
  - 6
  - 22
  - 200
  - 159
  - 193
  - 214
  - 48
  - 239
  - 30
  - 40
  - 139
  - 203
  - 83
  - 222
  - 9
  - 252
feedback:
  header:
    stamp:
      sec: 1699766733
      nanosec: 702509221
    frame_id: ''
  joint_names:
  - joint_1
  - joint_2
  - joint_3
  - joint_4
  - joint_5
  - joint_6
  desired:
    positions:
    - 0.03216985507151768
    - 0.0667411072031173
    - -0.19549050746021351
    - -0.14539575361839122
    - 0.27557814555062243
    - 0.14253182980509427
    velocities:
    - 0.014888508689039976
    - -0.013969073957378524
    - 0.011979795148704162
    - -0.11726340139517624
    - 0.0031216344785760883
    - 0.11888386851046202
    accelerations:
    - 0.017724505585117758
    - -0.016629934840887487
    - 0.014261733693831328
    - -0.13959999999799247
    - 0.003716250492689873
    - 0.14152913736406877
    effort: []
    time_from_start:
      sec: 0
      nanosec: 0
  actual:
    positions:
    - 0.03202158511374985
    - 0.06688022080065584
    - -0.195609810458107
    - -0.1442279644236699
    - 0.27554705817834274
    - 0.14134790288994942
    velocities:
    - 0.0
    - 0.0
    - 0.0
    - 0.0
    - 0.0
    - 0.0
    accelerations: []
    effort: []
    time_from_start:
      sec: 0
      nanosec: 0
  error:
    positions:
    - 0.0001482699577678298
    - -0.0001391135975385427
    - 0.00011930299789347787
    - -0.0011677891947213248
    - 3.108737227969227e-05
    - 0.0011839269151448506
    velocities:
    - 0.0
    - 0.0
    - 0.0
    - 0.0
    - 0.0
    - 0.0
    accelerations: []
    effort: []
    time_from_start:
      sec: 0
      nanosec: 0
  multi_dof_joint_names: []
  multi_dof_desired:
    transforms: []
    velocities: []
    accelerations: []
    time_from_start:
      sec: 0
      nanosec: 0
  multi_dof_actual:
    transforms: []
    velocities: []
    accelerations: []
    time_from_start:
      sec: 0
      nanosec: 0
  multi_dof_error:
    transforms: []
    velocities: []
    accelerations: []
    time_from_start:
      sec: 0
      nanosec: 0
---
goal_id:
  uuid:
  - 6
  - 22
  - 200
  - 159
  - 193
  - 214
  - 48
  - 239
  - 30
  - 40
  - 139
  - 203
  - 83
  - 222
  - 9
  - 252
feedback:
  header:
    stamp:
      sec: 1699766733
      nanosec: 752504436
    frame_id: ''
  joint_names:
  - joint_1
  - joint_2
  - joint_3
  - joint_4
  - joint_5
  - joint_6
  desired:
    positions:
    - 0.03293636065605232
    - 0.06602193690723732
    - -0.19487375127093695
    - -0.15143282918507292
    - 0.2757388567615759
    - 0.14865233193378882
    velocities:
    - 0.01577464915655413
    - -0.014800491125201825
    - 0.012692813591017002
    - -0.1242427334092166
    - 0.0033074292209635775
    - 0.12595964816189106
    accelerations:
    - 0.017724505585290738
    - -0.016629934841080937
    - 0.014261733694124784
    - -0.13959999999949022
    - 0.003716250493099937
    - 0.1415291373658063
    effort: []
    time_from_start:
      sec: 0
      nanosec: 0
  actual:
    positions:
    - 0.032779482905087184
    - 0.06616912672666582
    - -0.19499998038892344
    - -0.1501972441398803
    - 0.2757059646159242
    - 0.14739967229490317
    velocities:
    - 0.0
    - 0.0
    - 0.0
    - 0.0
    - 0.0
    - 0.0
    accelerations: []
    effort: []
    time_from_start:
      sec: 0
      nanosec: 0
  error:
    positions:
    - 0.000156877750965137
    - -0.00014718981942850318
    - 0.00012622911798648717
    - -0.001235585045192611
    - 3.2892145651663984e-05
    - 0.001252659638885656
    velocities:
    - 0.0
    - 0.0
    - 0.0
    - 0.0
    - 0.0
    - 0.0
    accelerations: []
    effort: []
    time_from_start:
      sec: 0
      nanosec: 0
  multi_dof_joint_names: []
  multi_dof_desired:
    transforms: []
    velocities: []
    accelerations: []
    time_from_start:
      sec: 0
      nanosec: 0
  multi_dof_actual:
    transforms: []
    velocities: []
    accelerations: []
    time_from_start:
      sec: 0
      nanosec: 0
  multi_dof_error:
    transforms: []
    velocities: []
    accelerations: []
    time_from_start:
      sec: 0
      nanosec: 0
---
goal_id:
  uuid:
  - 6
  - 22
  - 200
  - 159
  - 193
  - 214
  - 48
  - 239
  - 30
  - 40
  - 139
  - 203
  - 83
  - 222
  - 9
  - 252
feedback:
  header:
    stamp:
      sec: 1699766733
      nanosec: 802490203
    frame_id: ''
  joint_names:
  - joint_1
  - joint_2
  - joint_3
  - joint_4
  - joint_5
  - joint_6
  desired:
    positions:
    - 0.033747011613431147
    - 0.06526134742082491
    - -0.19422147422900266
    - -0.1578175981765079
    - 0.27590882381680576
    - 0.15512533227504102
    velocities:
    - 0.016660622162936286
    - -0.01563175117339435
    - 0.013405697288466507
    - -0.1312207464824147
    - 0.0034931888521937612
    - 0.1330340906459611
    accelerations:
    - 0.017724505585633252
    - -0.016629934841362392
    - 0.014261733694323377
    - -0.1396000000019982
    - 0.0037162504926940604
    - 0.1415291373679417
    effort: []
    time_from_start:
      sec: 0
      nanosec: 0
  actual:
    positions:
    - 0.033581286606135255
    - 0.06541683813731337
    - -0.19435482214717822
    - -0.15651233124496736
    - 0.2758740766901766
    - 0.15380202781334135
    velocities:
    - 0.0
    - 0.0
    - 0.0
    - 0.0
    - 0.0
    - 0.0
    accelerations: []
    effort: []
    time_from_start:
      sec: 0
      nanosec: 0
  error:
    positions:
    - 0.00016572500729589157
    - -0.00015549071648846002
    - 0.00013334791817556924
    - -0.0013052669315405385
    - 3.4747126629153247e-05
    - 0.0013233044616996759
    velocities:
    - 0.0
    - 0.0
    - 0.0
    - 0.0
    - 0.0
    - 0.0
    accelerations: []
    effort: []
    time_from_start:
      sec: 0
      nanosec: 0
  multi_dof_joint_names: []
  multi_dof_desired:
    transforms: []
    velocities: []
    accelerations: []
    time_from_start:
      sec: 0
      nanosec: 0
  multi_dof_actual:
    transforms: []
    velocities: []
    accelerations: []
    time_from_start:
      sec: 0
      nanosec: 0
  multi_dof_error:
    transforms: []
    velocities: []
    accelerations: []
    time_from_start:
      sec: 0
      nanosec: 0
---
goal_id:
  uuid:
  - 6
  - 22
  - 200
  - 159
  - 193
  - 214
  - 48
  - 239
  - 30
  - 40
  - 139
  - 203
  - 83
  - 222
  - 9
  - 252
feedback:
  header:
    stamp:
      sec: 1699766733
      nanosec: 852499826
    frame_id: ''
  joint_names:
  - joint_1
  - joint_2
  - joint_3
  - joint_4
  - joint_5
  - joint_6
  desired:
    positions:
    - 0.03460236720769333
    - 0.06445881401699903
    - -0.19353322633174314
    - -0.16455446541287605
    - 0.27608816397573355
    - 0.16195529651939852
    velocities:
    - 0.01754701800512093
    - -0.01646340794531301
    - 0.014118921213831986
    - -0.13820208985320442
    - 0.0036790371382954953
    - 0.14011190944913304
    accelerations:
    - 0.017724505585337138
    - -0.016629934841124166
    - 0.014261733693926491
    - -0.13959999999973788
    - 0.0037162504922475855
    - 0.1415291373655556
    effort: []
    time_from_start:
      sec: 0
      nanosec: 0
  actual:
    positions:
    - 0.03442783260051787
    - 0.0646225702995575
    - -0.1936736627504599
    - -0.16317981318100863
    - 0.27605156976345596
    - 0.16056164791943858
    velocities:
    - 0.0
    - 0.0
    - 0.0
    - 0.0
    - 0.0
    - 0.0
    accelerations: []
    effort: []
    time_from_start:
      sec: 0
      nanosec: 0
  error:
    positions:
    - 0.0001745346071754597
    - -0.00016375628255846375
    - 0.00014043641871677726
    - -0.0013746522318674181
    - 3.65942122775853e-05
    - 0.0013936485999599402
    velocities:
    - 0.0
    - 0.0
    - 0.0
    - 0.0
    - 0.0
    - 0.0
    accelerations: []
    effort: []
    time_from_start:
      sec: 0
      nanosec: 0
  multi_dof_joint_names: []
  multi_dof_desired:
    transforms: []
    velocities: []
    accelerations: []
    time_from_start:
      sec: 0
      nanosec: 0
  multi_dof_actual:
    transforms: []
    velocities: []
    accelerations: []
    time_from_start:
      sec: 0
      nanosec: 0
  multi_dof_error:
    transforms: []
    velocities: []
    accelerations: []
    time_from_start:
      sec: 0
      nanosec: 0
---
goal_id:
  uuid:
  - 6
  - 22
  - 200
  - 159
  - 193
  - 214
  - 48
  - 239
  - 30
  - 40
  - 139
  - 203
  - 83
  - 222
  - 9
  - 252
feedback:
  header:
    stamp:
      sec: 1699766733
      nanosec: 902504810
    frame_id: ''
  joint_names:
  - joint_1
  - joint_2
  - joint_3
  - joint_4
  - joint_5
  - joint_6
  desired:
    positions:
    - 0.035501923763567145
    - 0.06361488572969992
    - -0.19280942211718177
    - -0.17163811218447633
    - 0.2762767523063552
    - 0.16913823295576652
    velocities:
    - 0.018431587077204856
    - -0.01729016318505679
    - 0.014830289064733942
    - -0.1451126954691203
    - 0.003863696679377082
    - 0.1471763966703706
    accelerations:
    - 0.01775352024220827
    - -0.01671017227361255
    - 0.014291502897582084
    - -0.14076571390212242
    - 0.003735734543851677
    - 0.14173994382795943
    effort: []
    time_from_start:
      sec: 0
      nanosec: 0
  actual:
    positions:
    - 0.03531851236790919
    - 0.06378693805292979
    - -0.1929569971532298
    - -0.17019412114846516
    - 0.27623830515265535
    - 0.16767369089848388
    velocities:
    - 0.0
    - 0.0
    - 0.0
    - 0.0
    - 0.0
    - 0.0
    accelerations: []
    effort: []
    time_from_start:
      sec: 0
      nanosec: 0
  error:
    positions:
    - 0.00018341139565795223
    - -0.0001720523232298654
    - 0.00014757503604803657
    - -0.0014439910360111718
    - 3.844715369982765e-05
    - 0.0014645420572826362
    velocities:
    - 0.0
    - 0.0
    - 0.0
    - 0.0
    - 0.0
    - 0.0
    accelerations: []
    effort: []
    time_from_start:
      sec: 0
      nanosec: 0
  multi_dof_joint_names: []
  multi_dof_desired:
    transforms: []
    velocities: []
    accelerations: []
    time_from_start:
      sec: 0
      nanosec: 0
  multi_dof_actual:
    transforms: []
    velocities: []
    accelerations: []
    time_from_start:
      sec: 0
      nanosec: 0
  multi_dof_error:
    transforms: []
    velocities: []
    accelerations: []
    time_from_start:
      sec: 0
      nanosec: 0
---
goal_id:
  uuid:
  - 6
  - 22
  - 200
  - 159
  - 193
  - 214
  - 48
  - 239
  - 30
  - 40
  - 139
  - 203
  - 83
  - 222
  - 9
  - 252
feedback:
  header:
    stamp:
      sec: 1699766733
      nanosec: 952489377
    frame_id: ''
  joint_names:
  - joint_1
  - joint_2
  - joint_3
  - joint_4
  - joint_5
  - joint_6
  desired:
    positions:
    - 0.036445476368941625
    - 0.06272954972740216
    - -0.1920502016166867
    - -0.17907055015260695
    - 0.27647459768623683
    - 0.1766724246214016
    velocities:
    - 0.01932149334345261
    - -0.018132339173514943
    - 0.01554721301771023
    - -0.15224942105893144
    - 0.004052107414166739
    - 0.15427940101637613
    accelerations:
    - 0.01762688861786324
    - -0.016359983868282774
    - 0.014161578128143537
    - -0.13567806989923348
    - 0.0036506983132537883
    - 0.14081989969631653
    effort: []
    time_from_start:
      sec: 0
      nanosec: 0
  actual:
    positions:
    - 0.03625314965910932
    - 0.06291004316129677
    - -0.19220495946586597
    - -0.17755499133152156
    - 0.2764342619806834
    - 0.17513672436874922
    velocities:
    - 0.0
    - 0.0
    - 0.0
    - 0.0
    - 0.0
    - 0.0
    accelerations: []
    effort: []
    time_from_start:
      sec: 0
      nanosec: 0
  error:
    positions:
    - 0.00019232670983230366
    - -0.0001804934338946046
    - 0.00015475784917926005
    - -0.0015155588210853943
    - 4.033570555345145e-05
    - 0.0015357002526523722
    velocities:
    - 0.0
    - 0.0
    - 0.0
    - 0.0
    - 0.0
    - 0.0
    accelerations: []
    effort: []
    time_from_start:
      sec: 0
      nanosec: 0
  multi_dof_joint_names: []
  multi_dof_desired:
    transforms: []
    velocities: []
    accelerations: []
    time_from_start:
      sec: 0
      nanosec: 0
  multi_dof_actual:
    transforms: []
    velocities: []
    accelerations: []
    time_from_start:
      sec: 0
      nanosec: 0
  multi_dof_error:
    transforms: []
    velocities: []
    accelerations: []
    time_from_start:
      sec: 0
      nanosec: 0
---
goal_id:
  uuid:
  - 6
  - 22
  - 200
  - 159
  - 193
  - 214
  - 48
  - 239
  - 30
  - 40
  - 139
  - 203
  - 83
  - 222
  - 9
  - 252
feedback:
  header:
    stamp:
      sec: 1699766734
      nanosec: 2563200
    frame_id: ''
  joint_names:
  - joint_1
  - joint_2
  - joint_3
  - joint_4
  - joint_5
  - joint_6
  desired:
    positions:
    - 0.03743503833900812
    - 0.061801188252547955
    - -0.19125397770976926
    - -0.18686284165727013
    - 0.2766820536833964
    - 0.18457405451211636
    velocities:
    - 0.02020682270396698
    - -0.01895896919296707
    - 0.01625909102599572
    - -0.15915119076566933
    - 0.004236714398673329
    - 0.16135028926839834
    accelerations:
    - 0.017855187048986698
    - -0.016991380569867747
    - 0.014395820631489316
    - -0.14485137606258483
    - 0.0038040209138460205
    - 0.14247858289000218
    effort: []
    time_from_start:
      sec: 0
      nanosec: 0
  actual:
    positions:
    - 0.037232679180658576
    - 0.061991038517532716
    - -0.19141680121179974
    - -0.18526925740904168
    - 0.2766396286729362
    - 0.18295822367082568
    velocities:
    - 0.0
    - 0.0
    - 0.0
    - 0.0
    - 0.0
    - 0.0
    accelerations: []
    effort: []
    time_from_start:
      sec: 0
      nanosec: 0
  error:
    positions:
    - 0.000202359158349541
    - -0.00018985026498476165
    - 0.00016282350203047913
    - -0.0015935842482284468
    - 4.242501046020086e-05
    - 0.0016158308412906885
    velocities:
    - 0.0
    - 0.0
    - 0.0
    - 0.0
    - 0.0
    - 0.0
    accelerations: []
    effort: []
    time_from_start:
      sec: 0
      nanosec: 0
  multi_dof_joint_names: []
  multi_dof_desired:
    transforms: []
    velocities: []
    accelerations: []
    time_from_start:
      sec: 0
      nanosec: 0
  multi_dof_actual:
    transforms: []
    velocities: []
    accelerations: []
    time_from_start:
      sec: 0
      nanosec: 0
  multi_dof_error:
    transforms: []
    velocities: []
    accelerations: []
    time_from_start:
      sec: 0
      nanosec: 0
---
goal_id:
  uuid:
  - 6
  - 22
  - 200
  - 159
  - 193
  - 214
  - 48
  - 239
  - 30
  - 40
  - 139
  - 203
  - 83
  - 222
  - 9
  - 252
feedback:
  header:
    stamp:
      sec: 1699766734
      nanosec: 52493397
    frame_id: ''
  joint_names:
  - joint_1
  - joint_2
  - joint_3
  - joint_4
  - joint_5
  - joint_6
  desired:
    positions:
    - 0.03846612375023528
    - 0.06083366513458089
    - -0.19042431811447366
    - -0.1949857552128171
    - 0.2768982669695949
    - 0.19280716692536282
    velocities:
    - 0.0210922134643627
    - -0.019790420596545965
    - 0.01697159559886345
    - -0.16613765809878345
    - 0.004422538408306204
    - 0.16841979211330546
    accelerations:
    - 0.017655390167100153
    - -0.01643881116062436
    - 0.014190821947944899
    - -0.13682332460968355
    - 0.003669840028255386
    - 0.14102697469833397
    effort: []
    time_from_start:
      sec: 0
      nanosec: 0
  actual:
    positions:
    - 0.03825608942980334
    - 0.061030743193790746
    - -0.19059332053407263
    - -0.1933312502148453
    - 0.27685422600201903
    - 0.1911300608421139
    velocities:
    - 0.0
    - 0.0
    - 0.0
    - 0.0
    - 0.0
    - 0.0
    accelerations: []
    effort: []
    time_from_start:
      sec: 0
      nanosec: 0
  error:
    positions:
    - 0.0002100343204319427
    - -0.0001970780592098556
    - 0.0001690024195989681
    - -0.0016545049979718174
    - 4.404096757587572e-05
    - 0.0016771060832489193
    velocities:
    - 0.0
    - 0.0
    - 0.0
    - 0.0
    - 0.0
    - 0.0
    accelerations: []
    effort: []
    time_from_start:
      sec: 0
      nanosec: 0
  multi_dof_joint_names: []
  multi_dof_desired:
    transforms: []
    velocities: []
    accelerations: []
    time_from_start:
      sec: 0
      nanosec: 0
  multi_dof_actual:
    transforms: []
    velocities: []
    accelerations: []
    time_from_start:
      sec: 0
      nanosec: 0
  multi_dof_error:
    transforms: []
    velocities: []
    accelerations: []
    time_from_start:
      sec: 0
      nanosec: 0
---
goal_id:
  uuid:
  - 6
  - 22
  - 200
  - 159
  - 193
  - 214
  - 48
  - 239
  - 30
  - 40
  - 139
  - 203
  - 83
  - 222
  - 9
  - 252
feedback:
  header:
    stamp:
      sec: 1699766734
      nanosec: 102505784
    frame_id: ''
  joint_names:
  - joint_1
  - joint_2
  - joint_3
  - joint_4
  - joint_5
  - joint_6
  desired:
    positions:
    - 0.0395431432671567
    - 0.0598231538832011
    - -0.18955771163754356
    - -0.20346851774445823
    - 0.27712408350402706
    - 0.2014071035244381
    velocities:
    - 0.021978248066413016
    - -0.02062098891874435
    - 0.017684438049652137
    - -0.17310290632880312
    - 0.004608121496635135
    - 0.17549502154913907
    accelerations:
    - 0.01772450558727045
    - -0.016629934842869
    - 0.014261733695536214
    - -0.13960000001472556
    - 0.0037162504930314784
    - 0.14152913738087472
    effort: []
    time_from_start:
      sec: 0
      nanosec: 0
  actual:
    positions:
    - 0.039324393689321335
    - 0.06002839465611859
    - -0.18973372490966278
    - -0.2017456239283962
    - 0.27707821885508155
    - 0.1996604009774436
    velocities:
    - 0.0
    - 0.0
    - 0.0
    - 0.0
    - 0.0
    - 0.0
    accelerations: []
    effort: []
    time_from_start:
      sec: 0
      nanosec: 0
  error:
    positions:
    - 0.00021874957783536708
    - -0.00020524077291748932
    - 0.0001760132721192187
    - -0.0017228938160620266
    - 4.586464894551501e-05
    - 0.0017467025469945219
    velocities:
    - 0.0
    - 0.0
    - 0.0
    - 0.0
    - 0.0
    - 0.0
    accelerations: []
    effort: []
    time_from_start:
      sec: 0
      nanosec: 0
  multi_dof_joint_names: []
  multi_dof_desired:
    transforms: []
    velocities: []
    accelerations: []
    time_from_start:
      sec: 0
      nanosec: 0
  multi_dof_actual:
    transforms: []
    velocities: []
    accelerations: []
    time_from_start:
      sec: 0
      nanosec: 0
  multi_dof_error:
    transforms: []
    velocities: []
    accelerations: []
    time_from_start:
      sec: 0
      nanosec: 0
---
goal_id:
  uuid:
  - 6
  - 22
  - 200
  - 159
  - 193
  - 214
  - 48
  - 239
  - 30
  - 40
  - 139
  - 203
  - 83
  - 222
  - 9
  - 252
feedback:
  header:
    stamp:
      sec: 1699766734
      nanosec: 152505626
    frame_id: ''
  joint_names:
  - joint_1
  - joint_2
  - joint_3
  - joint_4
  - joint_5
  - joint_6
  desired:
    positions:
    - 0.04066420768987437
    - 0.05877132040820332
    - -0.18865566547475068
    - -0.21229813460781527
    - 0.27735913413453334
    - 0.2103587371773252
    velocities:
    - 0.02286447054525212
    - -0.02145248303330715
    - 0.018397522481029906
    - -0.18008288427232225
    - 0.004793933434098467
    - 0.1825714560561515
    accelerations:
    - 0.017724505583503445
    - -0.016629934839250494
    - 0.014261733692360222
    - -0.13959999998491346
    - 0.00371625049179852
    - 0.14152913735043138
    effort: []
    time_from_start:
      sec: 0
      nanosec: 0
  actual:
    positions:
    - 0.04043616081112272
    - 0.05898528433041776
    - -0.1888391596680783
    - -0.21050201430869797
    - 0.27731132014494514
    - 0.2085377962279011
    velocities:
    - 0.0
    - 0.0
    - 0.0
    - 0.0
    - 0.0
    - 0.0
    accelerations: []
    effort: []
    time_from_start:
      sec: 0
      nanosec: 0
  error:
    positions:
    - 0.00022804687875164348
    - -0.00021396392221444127
    - 0.0001834941933276102
    - -0.0017961202991172986
    - 4.7813989588196826e-05
    - 0.001820940949424088
    velocities:
    - 0.0
    - 0.0
    - 0.0
    - 0.0
    - 0.0
    - 0.0
    accelerations: []
    effort: []
    time_from_start:
      sec: 0
      nanosec: 0
  multi_dof_joint_names: []
  multi_dof_desired:
    transforms: []
    velocities: []
    accelerations: []
    time_from_start:
      sec: 0
      nanosec: 0
  multi_dof_actual:
    transforms: []
    velocities: []
    accelerations: []
    time_from_start:
      sec: 0
      nanosec: 0
  multi_dof_error:
    transforms: []
    velocities: []
    accelerations: []
    time_from_start:
      sec: 0
      nanosec: 0
---
goal_id:
  uuid:
  - 6
  - 22
  - 200
  - 159
  - 193
  - 214
  - 48
  - 239
  - 30
  - 40
  - 139
  - 203
  - 83
  - 222
  - 9
  - 252
feedback:
  header:
    stamp:
      sec: 1699766734
      nanosec: 202512151
    frame_id: ''
  joint_names:
  - joint_1
  - joint_2
  - joint_3
  - joint_4
  - joint_5
  - joint_6
  desired:
    positions:
    - 0.04182974182278477
    - 0.05767776343466569
    - -0.18771783748655393
    - -0.22147799940971227
    - 0.27760350861227606
    - 0.21966545885747446
    velocities:
    - 0.023750811476908485
    - -0.02228408828568064
    - 0.019110702223542386
    - -0.18706379516224503
    - 0.004979770207276997
    - 0.18964883640200045
    accelerations:
    - 0.01772450558649777
    - -0.016629934842200406
    - 0.014261733694955783
    - -0.13960000000889905
    - 0.0037162504929729853
    - 0.14152913737503484
    effort: []
    time_from_start:
      sec: 0
      nanosec: 0
  actual:
    positions:
    - 0.041594494561659784
    - 0.05789848308211733
    - -0.18790712534986062
    - -0.2196251681702261
    - 0.2775541849374437
    - 0.2177870232771792
    velocities:
    - 0.0
    - 0.0
    - 0.0
    - 0.0
    - 0.0
    - 0.0
    accelerations: []
    effort: []
    time_from_start:
      sec: 0
      nanosec: 0
  error:
    positions:
    - 0.00023524726112498368
    - -0.00022071964745163514
    - 0.00018928786330668634
    - -0.0018528312394861801
    - 4.9323674832346676e-05
    - 0.001878435580295268
    velocities:
    - 0.0
    - 0.0
    - 0.0
    - 0.0
    - 0.0
    - 0.0
    accelerations: []
    effort: []
    time_from_start:
      sec: 0
      nanosec: 0
  multi_dof_joint_names: []
  multi_dof_desired:
    transforms: []
    velocities: []
    accelerations: []
    time_from_start:
      sec: 0
      nanosec: 0
  multi_dof_actual:
    transforms: []
    velocities: []
    accelerations: []
    time_from_start:
      sec: 0
      nanosec: 0
  multi_dof_error:
    transforms: []
    velocities: []
    accelerations: []
    time_from_start:
      sec: 0
      nanosec: 0
---
goal_id:
  uuid:
  - 6
  - 22
  - 200
  - 159
  - 193
  - 214
  - 48
  - 239
  - 30
  - 40
  - 139
  - 203
  - 83
  - 222
  - 9
  - 252
feedback:
  header:
    stamp:
      sec: 1699766734
      nanosec: 252516374
    frame_id: ''
  joint_names:
  - joint_1
  - joint_2
  - joint_3
  - joint_4
  - joint_5
  - joint_6
  desired:
    positions:
    - 0.04303954207097588
    - 0.05654267398456662
    - -0.18674439149227173
    - -0.231006508616014
    - 0.27785716425004503
    - 0.22932564287145524
    velocities:
    - 0.024637111606737094
    - -0.023115655255929457
    - 0.019823849135528857
    - -0.19404438469283325
    - 0.005165598425643931
    - 0.19672589094763915
    accelerations:
    - 0.017724505585514302
    - -0.01662993484136967
    - 0.014261733694384377
    - -0.1396000000011207
    - 0.0037162504932191556
    - 0.14152913736741995
    effort: []
    time_from_start:
      sec: 0
      nanosec: 0
  actual:
    positions:
    - 0.04279566931956881
    - 0.056771486458115625
    - -0.18694061971534143
    - -0.2290857421420256
    - 0.2778060320913393
    - 0.22737833325723536
    velocities:
    - 0.0
    - 0.0
    - 0.0
    - 0.0
    - 0.0
    - 0.0
    accelerations: []
    effort: []
    time_from_start:
      sec: 0
      nanosec: 0
  error:
    positions:
    - 0.00024387275140706766
    - -0.0002288124735490074
    - 0.00019622822306969434
    - -0.0019207664739883945
    - 5.113215870572452e-05
    - 0.0019473096142198776
    velocities:
    - 0.0
    - 0.0
    - 0.0
    - 0.0
    - 0.0
    - 0.0
    accelerations: []
    effort: []
    time_from_start:
      sec: 0
      nanosec: 0
  multi_dof_joint_names: []
  multi_dof_desired:
    transforms: []
    velocities: []
    accelerations: []
    time_from_start:
      sec: 0
      nanosec: 0
  multi_dof_actual:
    transforms: []
    velocities: []
    accelerations: []
    time_from_start:
      sec: 0
      nanosec: 0
  multi_dof_error:
    transforms: []
    velocities: []
    accelerations: []
    time_from_start:
      sec: 0
      nanosec: 0
---
goal_id:
  uuid:
  - 6
  - 22
  - 200
  - 159
  - 193
  - 214
  - 48
  - 239
  - 30
  - 40
  - 139
  - 203
  - 83
  - 222
  - 9
  - 252
feedback:
  header:
    stamp:
      sec: 1699766734
      nanosec: 302573889
    frame_id: ''
  joint_names:
  - joint_1
  - joint_2
  - joint_3
  - joint_4
  - joint_5
  - joint_6
  desired:
    positions:
    - 0.044295021287333265
    - 0.055364726455264635
    - -0.18573419066292404
    - -0.24089478999905034
    - 0.27812039727698995
    - 0.23935057076667887
    velocities:
    - 0.02552435631097885
    - -0.023948108468715198
    - 0.020537756083870873
    - -0.20103241378708822
    - 0.005351624690419927
    - 0.2038104878645258
    accelerations:
    - 0.017724505583891048
    - -0.01662993483971691
    - 0.014261733692913158
    - -0.13959999998818082
    - 0.0037162504923510084
    - 0.14152913735397243
    effort: []
    time_from_start:
      sec: 0
      nanosec: 0
  actual:
    positions:
    - 0.04404136247192502
    - 0.05560272065779929
    - -0.18593829308242904
    - -0.23889694749447926
    - 0.2780672132999705
    - 0.23732512000546796
    velocities:
    - 0.0
    - 0.0
    - 0.0
    - 0.0
    - 0.0
    - 0.0
    accelerations: []
    effort: []
    time_from_start:
      sec: 0
      nanosec: 0
  error:
    positions:
    - 0.00025365881540824475
    - -0.00023799420253465403
    - 0.00020410241950499786
    - -0.001997842504571079
    - 5.3183977019477524e-05
    - 0.002025450761210912
    velocities:
    - 0.0
    - 0.0
    - 0.0
    - 0.0
    - 0.0
    - 0.0
    accelerations: []
    effort: []
    time_from_start:
      sec: 0
      nanosec: 0
  multi_dof_joint_names: []
  multi_dof_desired:
    transforms: []
    velocities: []
    accelerations: []
    time_from_start:
      sec: 0
      nanosec: 0
  multi_dof_actual:
    transforms: []
    velocities: []
    accelerations: []
    time_from_start:
      sec: 0
      nanosec: 0
  multi_dof_error:
    transforms: []
    velocities: []
    accelerations: []
    time_from_start:
      sec: 0
      nanosec: 0
---
goal_id:
  uuid:
  - 6
  - 22
  - 200
  - 159
  - 193
  - 214
  - 48
  - 239
  - 30
  - 40
  - 139
  - 203
  - 83
  - 222
  - 9
  - 252
feedback:
  header:
    stamp:
      sec: 1699766734
      nanosec: 352572400
    frame_id: ''
  joint_names:
  - joint_1
  - joint_2
  - joint_3
  - joint_4
  - joint_5
  - joint_6
  desired:
    positions:
    - 0.045593355409525714
